[
    {
    "name": "Kreuzberg",
    "id": "Kreuzberg",
    "keywords": "kreuzberg berlin",
    "coordinates": {
      "lat": 52.499378,
      "lng": 13.432026
    }
  },
  {
    "name": "Potsdamerplatz",
    "id": "Potsdamer Platz",
    "keywords": "Potsdamer%20Platz",
    "coordinates": {
      "lat": 52.509861,
      "lng": 13.376148
    }
  },
  {
    "name": "Tempelhof Airport",
    "id": "Berlin Tempelhof Airport",
    "keywords": "tempelhoferfeld",
    "coordinates": {
      "lat": 52.475679,
      "lng": 13.410002
    }
  },
  {
    "name": "Tiergarten",
    "id": "Tiergarten (park)",
    "keywords": "Tiergarten%20park",
    "coordinates": {
      "lat": 52.514543,
      "lng": 13.371186
    }
  },
  {
    "name": "RAW Gelände",
    "id": "Berlin Warschauer Straße station",
    "keywords": "raw_gelände",
    "coordinates": {
      "lat": 52.507014,
      "lng": 13.453916
    }
  },
  {
    "name": "Rixdorf",
    "id": "Neukölln (locality)",
    "keywords": "rixdorf",
    "coordinates": {
      "lat": 52.474500,
      "lng": 13.446964
    }
  }

]